orbit-data/NOAA-18-55765.txt

Pass details for NOAA 18 (orbit 55765)
Observer: Turku, Turku, Finland
LAT:60,52 LON:22,27
AOS: 2016/03/16 14:45:17 UTC
LOS: 2016/03/16 15:01:08 UTC
----------------------------------------------
 Time                  Az      El  Range Footp
----------------------------------------------
 2016/03/16 14:45:17 150,08   0,00  3423  6284
 2016/03/16 14:46:05 149,73   2,99  3109  6287
 2016/03/16 14:46:52 149,27   6,32  2797  6291
 2016/03/16 14:47:40 148,65  10,13  2487  6294
 2016/03/16 14:48:27 147,79  14,61  2181  6297
 2016/03/16 14:49:15 146,54  20,07  1884  6300
 2016/03/16 14:50:02 144,61  26,96  1599  6303
 2016/03/16 14:50:50 141,36  36,05  1337  6306
 2016/03/16 14:51:37 134,94  48,26  1113  6309
 2016/03/16 14:52:25 118,16  63,62   956  6312
 2016/03/16 14:53:13  61,31  73,43   903  6315
 2016/03/16 14:54:00   9,93  62,01   970  6317
 2016/03/16 14:54:48 355,04  46,93  1136  6320
 2016/03/16 14:55:35 349,14  35,14  1365  6322
 2016/03/16 14:56:23 346,10  26,36  1631  6324
 2016/03/16 14:57:10 344,29  19,67  1917  6325
 2016/03/16 14:57:58 343,13  14,36  2216  6327
 2016/03/16 14:58:45 342,33   9,97  2521  6328
 2016/03/16 14:59:33 341,77   6,23  2831  6329
 2016/03/16 15:00:20 341,38   2,94  3143  6329
 2016/03/16 15:01:08 341,10  -0,00  3457  6329
