orbit-data/NOAA-15-92788.txt

Pass details for NOAA 15 (orbit 92788)
Observer: Turku, Turku, Finland
LAT:60,52 LON:22,27
AOS: 2016/03/17 07:18:01 UTC
LOS: 2016/03/17 07:31:20 UTC
----------------------------------------------
 Time                  Az      El  Range Footp
----------------------------------------------
 2016/03/17 07:18:01  19,83   0,00  3320  6118
 2016/03/17 07:18:41  17,22   2,18  3087  6118
 2016/03/17 07:19:21  14,14   4,46  2860  6118
 2016/03/17 07:20:01  10,49   6,86  2643  6118
 2016/03/17 07:20:41   6,14   9,36  2439  6118
 2016/03/17 07:21:21   0,91  11,94  2251  6117
 2016/03/17 07:22:01 354,64  14,52  2084  6117
 2016/03/17 07:22:41 347,17  16,94  1943  6116
 2016/03/17 07:23:20 338,45  19,00  1836  6116
 2016/03/17 07:24:00 328,65  20,41  1769  6115
 2016/03/17 07:24:40 318,19  20,92  1745  6114
 2016/03/17 07:25:20 307,72  20,42  1767  6113
 2016/03/17 07:26:00 297,89  19,02  1834  6112
 2016/03/17 07:26:40 289,14  16,96  1940  6111
 2016/03/17 07:27:20 281,64  14,53  2079  6110
 2016/03/17 07:28:00 275,33  11,95  2246  6109
 2016/03/17 07:28:40 270,06   9,37  2433  6108
 2016/03/17 07:29:20 265,67   6,86  2637  6107
 2016/03/17 07:30:00 261,99   4,46  2853  6105
 2016/03/17 07:30:40 258,87   2,17  3078  6104
 2016/03/17 07:31:20 256,22  -0,00  3311  6103
