orbit-data/NOAA-19-36731.txt

Pass details for NOAA 19 (orbit 36731)
Observer: Turku, Turku, Finland
LAT:60,52 LON:22,27
AOS: 2016/03/25 11:35:15 UTC
LOS: 2016/03/25 11:50:55 UTC
----------------------------------------------
 Time                  Az      El  Range Footp
----------------------------------------------
 2016/03/25 11:35:15 151,15   0,00  3403  6253
 2016/03/25 11:36:02 150,84   2,95  3091  6253
 2016/03/25 11:36:49 150,44   6,24  2781  6254
 2016/03/25 11:37:36 149,89  10,00  2473  6254
 2016/03/25 11:38:23 149,12  14,42  2169  6255
 2016/03/25 11:39:10 148,00  19,80  1872  6256
 2016/03/25 11:39:57 146,27  26,62  1588  6257
 2016/03/25 11:40:44 143,35  35,63  1325  6258
 2016/03/25 11:41:31 137,57  47,85  1100  6258
 2016/03/25 11:42:18 122,25  63,59   939  6259
 2016/03/25 11:43:05  64,49  74,70   881  6260
 2016/03/25 11:43:52   9,09  62,96   944  6261
 2016/03/25 11:44:39 354,47  47,35  1108  6262
 2016/03/25 11:45:26 348,88  35,29  1336  6263
 2016/03/25 11:46:13 346,04  26,39  1600  6263
 2016/03/25 11:47:00 344,37  19,65  1885  6264
 2016/03/25 11:47:47 343,30  14,32  2181  6264
 2016/03/25 11:48:34 342,58   9,93  2485  6265
 2016/03/25 11:49:21 342,08   6,20  2793  6265
 2016/03/25 11:50:08 341,73   2,93  3104  6265
