orbit-data/NOAA-18-55723.txt

Pass details for NOAA 18 (orbit 55723)
Observer: Turku, Turku, Finland
LAT:60,52 LON:22,27
AOS: 2016/03/13 15:20:01 UTC
LOS: 2016/03/13 15:35:54 UTC
----------------------------------------------
 Time                  Az      El  Range Footp
----------------------------------------------
 2016/03/13 15:20:01 165,35   0,00  3418  6278
 2016/03/13 15:20:48 166,00   2,99  3104  6281
 2016/03/13 15:21:36 166,78   6,33  2792  6284
 2016/03/13 15:22:24 167,72  10,14  2482  6288
 2016/03/13 15:23:11 168,92  14,62  2177  6291
 2016/03/13 15:23:59 170,52  20,08  1880  6294
 2016/03/13 15:24:47 172,82  26,99  1595  6298
 2016/03/13 15:25:34 176,50  36,08  1333  6301
 2016/03/13 15:26:22 183,43  48,29  1111  6304
 2016/03/13 15:27:10 200,98  63,56   955  6307
 2016/03/13 15:27:58 257,93  73,02   903  6310
 2016/03/13 15:28:45 308,54  61,64   972  6313
 2016/03/13 15:29:33 323,81  46,69  1138  6316
 2016/03/13 15:30:21 330,15  34,98  1368  6318
 2016/03/13 15:31:08 333,61  26,26  1633  6321
 2016/03/13 15:31:56 335,83  19,60  1919  6323
 2016/03/13 15:32:44 337,40  14,31  2217  6324
 2016/03/13 15:33:31 338,60   9,94  2522  6326
 2016/03/13 15:34:19 339,57   6,21  2832  6327
 2016/03/13 15:35:07 340,38   2,93  3143  6328
 2016/03/13 15:35:54 341,07  -0,00  3456  6329
