orbit-data/NOAA-15-91282.txt

Pass details for NOAA 15 (orbit 91282)
Observer: Turku, Turku, Finland
LAT:60,52 LON:22,27
AOS: 2015/12/02 14:27:12 UTC
LOS: 2015/12/02 14:42:15 UTC
----------------------------------------------
 Time                  Az      El  Range Footp
----------------------------------------------
 2015/12/02 14:27:12 145,29   0,00  3299  6089
 2015/12/02 14:27:57 144,56   2,85  2998  6091
 2015/12/02 14:28:42 143,64   6,02  2700  6093
 2015/12/02 14:29:27 142,44   9,63  2404  6095
 2015/12/02 14:30:12 140,83  13,86  2113  6097
 2015/12/02 14:30:57 138,57  18,95  1830  6099
 2015/12/02 14:31:43 135,22  25,29  1560  6102
 2015/12/02 14:32:28 129,84  33,41  1313  6104
 2015/12/02 14:33:13 120,15  43,77  1104  6106
 2015/12/02 14:33:58 100,22  55,29   958  6109
 2015/12/02 14:34:43  61,64  61,19   908  6111
 2015/12/02 14:35:28  24,54  54,40   968  6113
 2015/12/02 14:36:13   5,90  42,87  1122  6115
 2015/12/02 14:36:59 356,76  32,76  1336  6117
 2015/12/02 14:37:44 351,64  24,84  1586  6119
 2015/12/02 14:38:29 348,43  18,65  1857  6121
 2015/12/02 14:39:14 346,27  13,66  2140  6123
 2015/12/02 14:39:59 344,74   9,51  2432  6124
 2015/12/02 14:40:44 343,61   5,95  2728  6126
 2015/12/02 14:41:29 342,75   2,82  3026  6127
