orbit-data/NOAA-18-passes.txt

Upcoming passes for NOAA 18
Observer: Turku, Turku, Finland
LAT:60,52 LON:22,27
-------------------------------------------------------------------------------------------------
 AOS                  TCA                  LOS                  Duration  Max El  AOS Az  LOS Az
-------------------------------------------------------------------------------------------------
 2015/12/02 09:55:23  2015/12/02 10:00:54  2015/12/02 10:06:25  00:11:02    9,37   45,33  315,20
 2015/12/02 11:33:16  2015/12/02 11:39:28  2015/12/02 11:45:41  00:12:24   13,55   77,25  332,62
 2015/12/02 13:11:18  2015/12/02 13:18:42  2015/12/02 13:26:05  00:14:46   30,54  117,20  339,53
 2015/12/02 14:50:59  2015/12/02 14:58:57  2015/12/02 15:06:55  00:15:55   85,22  159,79  341,13
 2015/12/02 16:33:12  2015/12/02 16:40:26  2015/12/02 16:47:41  00:14:29   22,94  205,92  338,73
 2015/12/03 03:02:40  2015/12/03 03:09:41  2015/12/03 03:16:42  00:14:01   19,80   21,86  148,67
 2015/12/03 04:43:24  2015/12/03 04:51:18  2015/12/03 04:59:13  00:15:48   75,19   18,92  195,69
 2015/12/03 06:24:14  2015/12/03 06:31:41  2015/12/03 06:39:07  00:14:53   33,57   20,11  238,68
 2015/12/03 08:04:42  2015/12/03 08:11:00  2015/12/03 08:17:18  00:12:35   14,40   26,36  279,15
 2015/12/03 09:44:05  2015/12/03 09:49:37  2015/12/03 09:55:08  00:11:03    9,41   42,52  312,23

 Orbit 54280
----------------------------------------------
 Time                  Az      El  Range Footp
----------------------------------------------
 2015/12/02 09:55:23  45,33   0,00  3448  6316
 2015/12/02 09:55:56  42,23   1,37  3299  6317
 2015/12/02 09:56:29  38,83   2,71  3160  6317
 2015/12/02 09:57:02  35,11   4,00  3031  6317
 2015/12/02 09:57:35  31,05   5,23  2914  6316
 2015/12/02 09:58:09  26,64   6,37  2811  6316
 2015/12/02 09:58:42  21,89   7,37  2723  6316
 2015/12/02 09:59:15  16,83   8,21  2653  6315
 2015/12/02 09:59:48  11,51   8,84  2601  6315
 2015/12/02 10:00:21   5,99   9,24  2569  6314
 2015/12/02 10:00:54   0,36   9,37  2558  6313
 2015/12/02 10:01:27 354,73   9,24  2568  6312
 2015/12/02 10:02:00 349,20   8,85  2598  6311
 2015/12/02 10:02:33 343,86   8,22  2648  6309
 2015/12/02 10:03:07 338,78   7,39  2717  6308
 2015/12/02 10:03:40 334,01   6,38  2803  6306
 2015/12/02 10:04:13 329,57   5,24  2905  6305
 2015/12/02 10:04:46 325,49   4,01  3021  6303
 2015/12/02 10:05:19 321,74   2,71  3149  6301
 2015/12/02 10:05:52 318,32   1,36  3288  6299

 Orbit 54281
----------------------------------------------
 Time                  Az      El  Range Footp
----------------------------------------------
 2015/12/02 11:33:16  77,25   0,00  3445  6312
 2015/12/02 11:33:53  74,19   1,76  3256  6313
 2015/12/02 11:34:30  70,74   3,53  3076  6314
 2015/12/02 11:35:08  66,84   5,30  2907  6315
 2015/12/02 11:35:45  62,45   7,04  2752  6315
 2015/12/02 11:36:22  57,49   8,72  2612  6316
 2015/12/02 11:36:59  51,96  10,26  2492  6316
 2015/12/02 11:37:37  45,86  11,60  2394  6316
 2015/12/02 11:38:14  39,23  12,64  2322  6317
 2015/12/02 11:38:51  32,21  13,31  2277  6317
 2015/12/02 11:39:28  24,96  13,55  2261  6316
 2015/12/02 11:40:06  17,71  13,32  2276  6316
 2015/12/02 11:40:43  10,68  12,66  2320  6316
 2015/12/02 11:41:20   4,04  11,61  2392  6315
 2015/12/02 11:41:57 357,92  10,28  2490  6314
 2015/12/02 11:42:35 352,38   8,73  2609  6313
 2015/12/02 11:43:12 347,42   7,05  2748  6312
 2015/12/02 11:43:49 343,02   5,31  2903  6311
 2015/12/02 11:44:26 339,12   3,53  3072  6310
 2015/12/02 11:45:04 335,67   1,75  3253  6308
 2015/12/02 11:45:41 332,62  -0,00  3442  6306

 Orbit 54282
----------------------------------------------
 Time                  Az      El  Range Footp
----------------------------------------------
 2015/12/02 13:11:18 117,20   0,00  3438  6305
 2015/12/02 13:12:03 115,08   2,57  3166  6306
 2015/12/02 13:12:47 112,53   5,33  2899  6308
 2015/12/02 13:13:31 109,41   8,33  2639  6309
 2015/12/02 13:14:16 105,53  11,60  2390  6310
 2015/12/02 13:15:00 100,61  15,18  2156  6312
 2015/12/02 13:15:44  94,30  19,03  1943  6313
 2015/12/02 13:16:29  86,12  23,00  1759  6314
 2015/12/02 13:17:13  75,65  26,71  1614  6315
 2015/12/02 13:17:57  62,76  29,49  1521  6315
 2015/12/02 13:18:42  48,21  30,54  1489  6316
 2015/12/02 13:19:26  33,67  29,48  1521  6316
 2015/12/02 13:20:10  20,80  26,69  1616  6316
 2015/12/02 13:20:55  10,36  22,97  1761  6316
 2015/12/02 13:21:39   2,22  19,01  1945  6316
 2015/12/02 13:22:23 355,94  15,16  2159  6316
 2015/12/02 13:23:08 351,05  11,59  2394  6315
 2015/12/02 13:23:52 347,20   8,32  2643  6314
 2015/12/02 13:24:36 344,12   5,32  2904  6313
 2015/12/02 13:25:21 341,61   2,56  3171  6312
 2015/12/02 13:26:05 339,53  -0,00  3444  6310

 Orbit 54283
----------------------------------------------
 Time                  Az      El  Range Footp
----------------------------------------------
 2015/12/02 14:50:59 159,79   0,00  3433  6300
 2015/12/02 14:51:47 160,07   2,99  3118  6302
 2015/12/02 14:52:35 160,39   6,33  2803  6303
 2015/12/02 14:53:23 160,76  10,16  2491  6305
 2015/12/02 14:54:11 161,20  14,67  2184  6307
 2015/12/02 14:54:58 161,75  20,17  1883  6308
 2015/12/02 14:55:46 162,50  27,18  1594  6309
 2015/12/02 14:56:34 163,65  36,55  1327  6311
 2015/12/02 14:57:22 165,77  49,55  1096  6312
 2015/12/02 14:58:09 171,77  67,43   932  6313
 2015/12/02 14:58:57 256,52  85,22   873  6314
 2015/12/02 14:59:45 329,33  66,56   938  6315
 2015/12/02 15:00:33 334,98  48,92  1106  6316
 2015/12/02 15:01:20 337,05  36,14  1339  6316
 2015/12/02 15:02:08 338,19  26,91  1608  6316
 2015/12/02 15:02:56 338,96  19,99  1897  6316
 2015/12/02 15:03:44 339,54  14,55  2197  6316
 2015/12/02 15:04:31 340,01  10,08  2505  6316
 2015/12/02 15:05:19 340,43   6,29  2817  6315
 2015/12/02 15:06:07 340,79   2,97  3131  6314
 2015/12/02 15:06:55 341,13  -0,00  3446  6313

 Orbit 54284
----------------------------------------------
 Time                  Az      El  Range Footp
----------------------------------------------
 2015/12/02 16:33:12 205,92   0,00  3433  6301
 2015/12/02 16:33:55 208,80   2,33  3186  6302
 2015/12/02 16:34:39 212,14   4,78  2946  6304
 2015/12/02 16:35:22 216,07   7,37  2715  6305
 2015/12/02 16:36:05 220,73  10,09  2498  6306
 2015/12/02 16:36:49 226,32  12,92  2297  6308
 2015/12/02 16:37:32 233,04  15,77  2119  6309
 2015/12/02 16:38:16 241,07  18,49  1969  6310
 2015/12/02 16:38:59 250,50  20,81  1855  6311
 2015/12/02 16:39:43 261,17  22,40  1784  6313
 2015/12/02 16:40:26 272,58  22,94  1761  6314
 2015/12/02 16:41:10 283,96  22,32  1788  6314
 2015/12/02 16:41:53 294,54  20,68  1863  6315
 2015/12/02 16:42:37 303,87  18,34  1980  6316
 2015/12/02 16:43:20 311,80  15,62  2132  6316
 2015/12/02 16:44:04 318,43  12,79  2312  6316
 2015/12/02 16:44:47 323,96   9,98  2513  6316
 2015/12/02 16:45:30 328,59   7,28  2731  6316
 2015/12/02 16:46:14 332,50   4,72  2961  6316
 2015/12/02 16:46:57 335,84   2,29  3201  6315
 2015/12/02 16:47:41 338,73  -0,00  3447  6314

 Orbit 54290
----------------------------------------------
 Time                  Az      El  Range Footp
----------------------------------------------
 2015/12/03 03:02:40  21,86   0,00  3442  6309
 2015/12/03 03:03:22  24,90   2,14  3211  6307
 2015/12/03 03:04:04  28,38   4,37  2988  6305
 2015/12/03 03:04:47  32,41   6,68  2774  6303
 2015/12/03 03:05:29  37,10   9,08  2574  6300
 2015/12/03 03:06:11  42,60  11,52  2389  6298
 2015/12/03 03:06:53  49,03  13,92  2225  6295
 2015/12/03 03:07:35  56,52  16,15  2088  6293
 2015/12/03 03:08:17  65,09  18,02  1982  6290
 2015/12/03 03:08:59  74,58  19,31  1914  6287
 2015/12/03 03:09:41  84,66  19,80  1888  6284
 2015/12/03 03:10:23  94,79  19,42  1906  6281
 2015/12/03 03:11:05 104,43  18,21  1965  6278
 2015/12/03 03:11:47 113,18  16,38  2064  6274
 2015/12/03 03:12:29 120,87  14,15  2196  6271
 2015/12/03 03:13:11 127,49  11,73  2355  6268
 2015/12/03 03:13:53 133,13   9,26  2537  6265
 2015/12/03 03:14:35 137,94   6,81  2736  6262
 2015/12/03 03:15:17 142,06   4,45  2949  6259
 2015/12/03 03:16:00 145,60   2,17  3172  6256

 Orbit 54291
----------------------------------------------
 Time                  Az      El  Range Footp
----------------------------------------------
 2015/12/03 04:43:24  18,92   0,00  3444  6311
 2015/12/03 04:44:11  19,55   2,93  3132  6310
 2015/12/03 04:44:59  20,27   6,20  2821  6308
 2015/12/03 04:45:46  21,12   9,92  2512  6306
 2015/12/03 04:46:34  22,18  14,28  2207  6303
 2015/12/03 04:47:21  23,57  19,57  1909  6301
 2015/12/03 04:48:08  25,51  26,24  1623  6298
 2015/12/03 04:48:56  28,53  35,03  1356  6295
 2015/12/03 04:49:43  34,10  46,93  1126  6292
 2015/12/03 04:50:31  47,93  62,49   957  6289
 2015/12/03 04:51:18 101,25  75,19   887  6285
 2015/12/03 04:52:06 163,45  64,75   939  6282
 2015/12/03 04:52:53 179,72  48,74  1095  6278
 2015/12/03 04:53:41 185,88  36,24  1318  6275
 2015/12/03 04:54:28 189,11  27,04  1581  6271
 2015/12/03 04:55:15 191,13  20,08  1865  6268
 2015/12/03 04:56:03 192,54  14,61  2162  6264
 2015/12/03 04:56:50 193,59  10,12  2467  6261
 2015/12/03 04:57:38 194,43   6,31  2777  6257
 2015/12/03 04:58:25 195,11   2,98  3089  6254
 2015/12/03 04:59:13 195,69  -0,00  3402  6251

 Orbit 54292
----------------------------------------------
 Time                  Az      El  Range Footp
----------------------------------------------
 2015/12/03 06:24:14  20,11   0,00  3445  6313
 2015/12/03 06:24:59  18,24   2,61  3166  6312
 2015/12/03 06:25:44  15,95   5,44  2891  6311
 2015/12/03 06:26:28  13,12   8,54  2622  6309
 2015/12/03 06:27:13   9,54  11,95  2363  6307
 2015/12/03 06:27:58   4,94  15,74  2118  6305
 2015/12/03 06:28:42 358,90  19,92  1893  6303
 2015/12/03 06:29:27 350,85  24,37  1695  6300
 2015/12/03 06:30:12 340,14  28,72  1537  6298
 2015/12/03 06:30:56 326,40  32,15  1432  6295
 2015/12/03 06:31:41 310,34  33,57  1392  6292
 2015/12/03 06:32:26 294,13  32,37  1423  6289
 2015/12/03 06:33:10 280,06  29,06  1521  6286
 2015/12/03 06:33:55 269,01  24,71  1673  6283
 2015/12/03 06:34:40 260,68  20,21  1866  6279
 2015/12/03 06:35:24 254,43  15,97  2089  6276
 2015/12/03 06:36:09 249,66  12,11  2332  6273
 2015/12/03 06:36:54 245,96   8,64  2589  6269
 2015/12/03 06:37:38 243,02   5,50  2857  6266
 2015/12/03 06:38:23 240,64   2,63  3131  6263
 2015/12/03 06:39:07 238,68  -0,00  3410  6259

 Orbit 54293
----------------------------------------------
 Time                  Az      El  Range Footp
----------------------------------------------
 2015/12/03 08:04:42  26,36   0,00  3446  6315
 2015/12/03 08:05:20  23,36   1,82  3250  6314
 2015/12/03 08:05:58  19,96   3,66  3062  6313
 2015/12/03 08:06:35  16,10   5,51  2885  6313
 2015/12/03 08:07:13  11,70   7,35  2722  6311
 2015/12/03 08:07:51   6,70   9,13  2575  6310
 2015/12/03 08:08:29   1,07  10,79  2448  6309
 2015/12/03 08:09:07 354,80  12,24  2343  6307
 2015/12/03 08:09:44 347,94  13,39  2265  6306
 2015/12/03 08:10:22 340,62  14,13  2216  6304
 2015/12/03 08:11:00 333,03  14,40  2198  6302
 2015/12/03 08:11:38 325,43  14,16  2213  6300
 2015/12/03 08:12:16 318,07  13,43  2258  6298
 2015/12/03 08:12:53 311,16  12,29  2333  6295
 2015/12/03 08:13:31 304,82  10,84  2435  6293
 2015/12/03 08:14:09 299,12   9,18  2560  6290
 2015/12/03 08:14:47 294,05   7,39  2704  6288
 2015/12/03 08:15:24 289,58   5,54  2866  6285
 2015/12/03 08:16:02 285,65   3,67  3041  6282
 2015/12/03 08:16:40 282,20   1,82  3227  6279

 Orbit 54294
----------------------------------------------
 Time                  Az      El  Range Footp
----------------------------------------------
 2015/12/03 09:44:05  42,52  -0,00  3448  6315
 2015/12/03 09:44:38  39,43   1,36  3299  6315
 2015/12/03 09:45:11  36,03   2,71  3159  6315
 2015/12/03 09:45:45  32,31   4,01  3029  6315
 2015/12/03 09:46:18  28,24   5,24  2912  6315
 2015/12/03 09:46:51  23,83   6,38  2808  6315
 2015/12/03 09:47:24  19,08   7,39  2720  6314
 2015/12/03 09:47:57  14,01   8,23  2650  6313
 2015/12/03 09:48:30   8,67   8,87  2598  6313
 2015/12/03 09:49:03   3,14   9,27  2565  6312
 2015/12/03 09:49:37 357,50   9,41  2554  6311
 2015/12/03 09:50:10 351,85   9,28  2564  6310
 2015/12/03 09:50:43 346,30   8,88  2594  6308
 2015/12/03 09:51:16 340,95   8,25  2644  6307
 2015/12/03 09:51:49 335,85   7,41  2713  6305
 2015/12/03 09:52:22 331,07   6,40  2800  6304
 2015/12/03 09:52:56 326,62   5,26  2902  6302
 2015/12/03 09:53:29 322,53   4,02  3018  6300
 2015/12/03 09:54:02 318,78   2,72  3147  6298
 2015/12/03 09:54:35 315,35   1,37  3286  6296
