orbit-data/NOAA-18-55906.txt

Pass details for NOAA 18 (orbit 55906)
Observer: Turku, Turku, Finland
LAT:60,52 LON:22,27
AOS: 2016/03/26 14:30:20 UTC
LOS: 2016/03/26 14:46:04 UTC
----------------------------------------------
 Time                  Az      El  Range Footp
----------------------------------------------
 2016/03/26 14:30:20 142,98   0,00  3432  6297
 2016/03/26 14:31:08 142,19   2,94  3123  6300
 2016/03/26 14:31:55 141,20   6,20  2815  6302
 2016/03/26 14:32:42 139,90   9,91  2511  6305
 2016/03/26 14:33:29 138,17  14,22  2212  6307
 2016/03/26 14:34:16 135,75  19,39  1922  6310
 2016/03/26 14:35:04 132,18  25,78  1647  6312
 2016/03/26 14:35:51 126,50  33,84  1395  6314
 2016/03/26 14:36:38 116,47  43,87  1184  6317
 2016/03/26 14:37:25  96,65  54,67  1038  6319
 2016/03/26 14:38:12  60,50  60,07   987  6320
 2016/03/26 14:39:00  25,27  54,06  1045  6322
 2016/03/26 14:39:47   6,37  43,23  1197  6324
 2016/03/26 14:40:34 356,76  33,35  1413  6325
 2016/03/26 14:41:21 351,28  25,44  1666  6326
 2016/03/26 14:42:08 347,84  19,17  1943  6327
 2016/03/26 14:42:56 345,50  14,08  2234  6327
 2016/03/26 14:43:43 343,84   9,82  2533  6327
 2016/03/26 14:44:30 342,61   6,15  2837  6327
 2016/03/26 14:45:17 341,68   2,92  3145  6327
