orbit-data/NOAA-18-54283.txt

Pass details for NOAA 18 (orbit 54283)
Observer: Turku, Turku, Finland
LAT:60,52 LON:22,27
AOS: 2015/12/02 14:50:59 UTC
LOS: 2015/12/02 15:06:55 UTC
----------------------------------------------
 Time                  Az      El  Range Footp
----------------------------------------------
 2015/12/02 14:50:59 159,79   0,00  3433  6300
 2015/12/02 14:51:47 160,07   2,99  3118  6302
 2015/12/02 14:52:35 160,39   6,33  2803  6303
 2015/12/02 14:53:23 160,76  10,16  2491  6305
 2015/12/02 14:54:11 161,20  14,67  2184  6307
 2015/12/02 14:54:58 161,75  20,17  1883  6308
 2015/12/02 14:55:46 162,50  27,18  1594  6309
 2015/12/02 14:56:34 163,65  36,55  1327  6311
 2015/12/02 14:57:22 165,77  49,55  1096  6312
 2015/12/02 14:58:09 171,77  67,43   932  6313
 2015/12/02 14:58:57 256,52  85,22   873  6314
 2015/12/02 14:59:45 329,33  66,56   938  6315
 2015/12/02 15:00:33 334,98  48,92  1106  6316
 2015/12/02 15:01:20 337,05  36,14  1339  6316
 2015/12/02 15:02:08 338,19  26,91  1608  6316
 2015/12/02 15:02:56 338,96  19,99  1897  6316
 2015/12/02 15:03:44 339,54  14,55  2197  6316
 2015/12/02 15:04:31 340,01  10,08  2505  6316
 2015/12/02 15:05:19 340,43   6,29  2817  6315
 2015/12/02 15:06:07 340,79   2,97  3131  6314
 2015/12/02 15:06:55 341,13  -0,00  3446  6313
