orbit-data/NOAA-18-55794.txt

Pass details for NOAA 18 (orbit 55794)
Observer: Turku, Turku, Finland
LAT:60,52 LON:22,27
AOS: 2016/03/18 16:02:41 UTC
LOS: 2016/03/18 16:18:48 UTC
----------------------------------------------
 Time                  Az      El  Range Footp
----------------------------------------------
 2016/03/18 16:02:41 183,00  -1,91  3641  6283
 2016/03/18 16:03:29 184,69   0,82  3334  6286
 2016/03/18 16:04:17 186,70   3,80  3030  6289
 2016/03/18 16:05:06 189,14   7,10  2730  6292
 2016/03/18 16:05:54 192,19  10,81  2437  6295
 2016/03/18 16:06:43 196,11  15,06  2154  6298
 2016/03/18 16:07:31 201,37  20,00  1888  6301
 2016/03/18 16:08:19 208,68  25,70  1646  6304
 2016/03/18 16:09:08 219,25  32,01  1442  6307
 2016/03/18 16:09:56 234,66  38,02  1294  6310
 2016/03/18 16:10:44 255,39  41,60  1223  6313
 2016/03/18 16:11:33 277,87  40,62  1242  6316
 2016/03/18 16:12:21 296,53  35,77  1349  6318
 2016/03/18 16:13:10 309,75  29,50  1523  6320
 2016/03/18 16:13:58 318,81  23,44  1745  6323
 2016/03/18 16:14:46 325,17  18,09  1998  6324
 2016/03/18 16:15:35 329,83  13,49  2271  6326
 2016/03/18 16:16:23 333,39   9,50  2557  6327
 2016/03/18 16:17:11 336,21   5,99  2852  6328
 2016/03/18 16:18:00 338,51   2,85  3153  6329
