orbit-data/NOAA-18-54297.txt

Pass details for NOAA 18 (orbit 54297)
Observer: Turku, Turku, Finland
LAT:60,52 LON:22,27
AOS: 2015/12/03 14:39:27 UTC
LOS: 2015/12/03 14:55:20 UTC
----------------------------------------------
 Time                  Az      El  Range Footp
----------------------------------------------
 2015/12/03 14:39:27 154,73   0,00  3433  6300
 2015/12/03 14:40:14 154,68   2,99  3118  6302
 2015/12/03 14:41:02 154,59   6,33  2804  6303
 2015/12/03 14:41:50 154,44  10,15  2492  6305
 2015/12/03 14:42:37 154,19  14,65  2185  6306
 2015/12/03 14:43:25 153,80  20,14  1884  6308
 2015/12/03 14:44:13 153,14  27,13  1596  6309
 2015/12/03 14:45:00 151,94  36,45  1329  6310
 2015/12/03 14:45:48 149,41  49,36  1099  6311
 2015/12/03 14:46:36 141,67  66,98   935  6313
 2015/12/03 14:47:24  63,93  83,39   875  6313
 2015/12/03 14:48:11 353,35  66,25   940  6314
 2015/12/03 14:48:59 346,03  48,82  1107  6315
 2015/12/03 14:49:47 343,59  36,10  1339  6315
 2015/12/03 14:50:34 342,45  26,90  1608  6315
 2015/12/03 14:51:22 341,83  19,98  1896  6315
 2015/12/03 14:52:10 341,47  14,54  2197  6315
 2015/12/03 14:52:57 341,27  10,08  2505  6314
 2015/12/03 14:53:45 341,17   6,29  2816  6313
 2015/12/03 14:54:33 341,14   2,97  3130  6312
