orbit-data/NOAA-15-92921.txt

Pass details for NOAA 15 (orbit 92921)
Observer: Turku, Turku, Finland
LAT:60,52 LON:22,27
AOS: 2016/03/26 15:04:31 UTC
LOS: 2016/03/26 15:19:43 UTC
----------------------------------------------
 Time                  Az      El  Range Footp
----------------------------------------------
 2016/03/26 15:04:31 158,52  -0,00  3301  6092
 2016/03/26 15:05:16 158,66   2,89  2995  6093
 2016/03/26 15:06:02 158,79   6,13  2691  6095
 2016/03/26 15:06:48 158,92   9,85  2388  6096
 2016/03/26 15:07:33 159,06  14,23  2089  6097
 2016/03/26 15:08:19 159,19  19,62  1797  6099
 2016/03/26 15:09:04 159,31  26,52  1516  6101
 2016/03/26 15:09:50 159,42  35,83  1254  6102
 2016/03/26 15:10:36 159,48  48,95  1028  6104
 2016/03/26 15:11:21 159,35  67,47   866  6106
 2016/03/26 15:12:07 355,33  89,10   808  6107
 2016/03/26 15:12:53 340,80  65,98   875  6109
 2016/03/26 15:13:38 340,70  47,92  1044  6111
 2016/03/26 15:14:24 340,78  35,17  1274  6112
 2016/03/26 15:15:09 340,91  26,10  1537  6114
 2016/03/26 15:15:55 341,06  19,35  1819  6115
 2016/03/26 15:16:41 341,23  14,06  2112  6116
 2016/03/26 15:17:26 341,40   9,74  2410  6117
 2016/03/26 15:18:12 341,57   6,07  2713  6118
 2016/03/26 15:18:58 341,76   2,86  3017  6119
 2016/03/26 15:19:43 341,94  -0,00  3322  6120
