orbit-data/NOAA-19-36747.txt

Pass details for NOAA 19 (orbit 36747)
Observer: Turku, Turku, Finland
LAT:60,52 LON:22,27
AOS: 2016/03/26 14:49:57 UTC
LOS: 2016/03/26 15:00:43 UTC
----------------------------------------------
 Time                  Az      El  Range Footp
----------------------------------------------
 2016/03/26 14:49:57 244,16   0,00  3405  6253
 2016/03/26 14:50:30 247,48   1,19  3276  6253
 2016/03/26 14:51:02 251,07   2,34  3156  6254
 2016/03/26 14:51:34 254,92   3,44  3045  6254
 2016/03/26 14:52:07 259,05   4,47  2946  6255
 2016/03/26 14:52:39 263,45   5,40  2860  6256
 2016/03/26 14:53:11 268,11   6,21  2787  6256
 2016/03/26 14:53:43 273,00   6,87  2730  6257
 2016/03/26 14:54:16 278,08   7,36  2688  6258
 2016/03/26 14:54:48 283,29   7,66  2663  6258
 2016/03/26 14:55:20 288,57   7,76  2655  6259
 2016/03/26 14:55:53 293,84   7,65  2665  6260
 2016/03/26 14:56:25 299,04   7,34  2692  6260
 2016/03/26 14:56:57 304,10   6,84  2735  6261
 2016/03/26 14:57:29 308,97   6,17  2794  6261
 2016/03/26 14:58:02 313,60   5,36  2868  6262
 2016/03/26 14:58:34 317,98   4,43  2955  6263
 2016/03/26 14:59:06 322,09   3,40  3055  6263
 2016/03/26 14:59:38 325,92   2,31  3165  6263
 2016/03/26 15:00:11 329,50   1,17  3286  6264
 2016/03/26 15:00:43 332,81  -0,00  3415  6264
