orbit-data/NOAA-15-92736.txt

Pass details for NOAA 15 (orbit 92736)
Observer: Turku, Turku, Finland
LAT:60,52 LON:22,27
AOS: 2016/03/13 15:28:18 UTC
LOS: 2016/03/13 15:43:30 UTC
----------------------------------------------
 Time                  Az      El  Range Footp
----------------------------------------------
 2016/03/13 15:28:18 169,49   0,00  3307  6104
 2016/03/13 15:29:04 170,35   2,86  3005  6105
 2016/03/13 15:29:49 171,37   6,05  2704  6106
 2016/03/13 15:30:35 172,64   9,69  2406  6106
 2016/03/13 15:31:20 174,25  13,96  2112  6107
 2016/03/13 15:32:06 176,42  19,12  1826  6108
 2016/03/13 15:32:52 179,53  25,60  1552  6109
 2016/03/13 15:33:37 184,43  34,03  1300  6110
 2016/03/13 15:34:23 193,28  45,07  1085  6111
 2016/03/13 15:35:08 212,71  58,10   933  6113
 2016/03/13 15:35:54 256,85  65,54   879  6114
 2016/03/13 15:36:39 299,61  57,43   940  6115
 2016/03/13 15:37:25 318,13  44,45  1096  6116
 2016/03/13 15:38:11 326,67  33,58  1314  6116
 2016/03/13 15:38:56 331,45  25,30  1568  6117
 2016/03/13 15:39:42 334,52  18,91  1842  6118
 2016/03/13 15:40:27 336,69  13,82  2128  6118
 2016/03/13 15:41:13 338,32   9,60  2422  6119
 2016/03/13 15:41:59 339,61   6,00  2720  6119
 2016/03/13 15:42:44 340,67   2,83  3020  6119
 2016/03/13 15:43:30 341,58  -0,00  3322  6119
