orbit-data/NOAA-19-36562.txt

Pass details for NOAA 19 (orbit 36562)
Observer: Turku, Turku, Finland
LAT:60,52 LON:22,27
AOS: 2016/03/13 12:10:44 UTC
LOS: 2016/03/13 12:26:30 UTC
----------------------------------------------
 Time                  Az      El  Range Footp
----------------------------------------------
 2016/03/13 12:10:44 167,05   0,00  3414  6271
 2016/03/13 12:11:32 167,79   2,95  3103  6271
 2016/03/13 12:12:19 168,66   6,23  2793  6272
 2016/03/13 12:13:06 169,73   9,97  2485  6272
 2016/03/13 12:13:54 171,09  14,36  2182  6272
 2016/03/13 12:14:41 172,92  19,69  1887  6273
 2016/03/13 12:15:28 175,53  26,39  1605  6273
 2016/03/13 12:16:15 179,66  35,15  1344  6273
 2016/03/13 12:17:03 187,28  46,78  1121  6274
 2016/03/13 12:17:50 205,24  61,05   963  6274
 2016/03/13 12:18:37 254,93  70,08   905  6275
 2016/03/13 12:19:25 303,60  60,67   966  6275
 2016/03/13 12:20:12 321,09  46,44  1126  6275
 2016/03/13 12:20:59 328,57  34,90  1351  6275
 2016/03/13 12:21:47 332,67  26,22  1612  6275
 2016/03/13 12:22:34 335,28  19,57  1895  6275
 2016/03/13 12:23:21 337,12  14,28  2190  6275
 2016/03/13 12:24:08 338,51   9,92  2493  6275
 2016/03/13 12:24:56 339,62   6,19  2800  6274
 2016/03/13 12:25:43 340,54   2,93  3109  6274
